[
  {
    "id": "FM南南004",
    "name": "全家南投縣中心區店",
    "city": "南投縣",
    "district": "南投縣中心區",
    "address": "南投縣南投縣中心區建國路199號",
    "phone": "03-4376-6458",
    "services": "WiFi,FamiPort,冷凍宅配,代收",
    "hours": "06:00-24:00",
    "type": "family"
  },
  {
    "id": "FM南南001",
    "name": "全家南投縣中心區門市",
    "city": "南投縣",
    "district": "南投縣中心區",
    "address": "南投縣南投縣中心區中山路162號",
    "phone": "03-3288-2291",
    "services": "影印,廁所,傳真,宅配,Let's Café",
    "hours": "06:00-24:00",
    "type": "family"
  },
  {
    "id": "FM南南003",
    "name": "全家信義路店",
    "city": "南投縣",
    "district": "南投縣東區",
    "address": "南投縣南投縣東區信義路303號",
    "phone": "06-6595-4223",
    "services": "Let's Café,廁所,店到店,ATM,FamiPort,代收",
    "hours": "07:00-23:00",
    "type": "family"
  },
  {
    "id": "FM南南005",
    "name": "全家南投縣05店",
    "city": "南投縣",
    "district": "南投縣東區",
    "address": "南投縣南投縣東區仁愛路225號",
    "phone": "04-2513-3734",
    "services": "停車場,FamiPort,WiFi,Let's Café,影印,冷凍宅配,店到店",
    "hours": "06:00-24:00",
    "type": "family"
  },
  {
    "id": "FM南南002",
    "name": "全家南投縣02店",
    "city": "南投縣",
    "district": "南投縣西區",
    "address": "南投縣南投縣西區和平路99號",
    "phone": "02-5858-7828",
    "services": "代收,廁所,傳真",
    "hours": "07:00-23:00",
    "type": "family"
  },
  {
    "id": "FM台中015",
    "name": "全家中區店",
    "city": "台中市",
    "district": "中區",
    "address": "台中市中區中正路113號",
    "phone": "02-3303-1357",
    "services": "WiFi,停車場,Let's Café,代收",
    "hours": "24小時",
    "type": "family"
  },
  {
    "id": "FM台北008",
    "name": "全家北區店",
    "city": "台中市",
    "district": "北區",
    "address": "台中市北區中正路191號",
    "phone": "07-9044-2286",
    "services": "店到店,傳真,宅配,冷凍宅配,影印",
    "hours": "24小時",
    "type": "family"
  },
  {
    "id": "FM台南009",
    "name": "全家南區店",
    "city": "台中市",
    "district": "南區",
    "address": "台中市南區民生路474號",
    "phone": "07-4688-8052",
    "services": "店到店,WiFi,影印,宅配",
    "hours": "06:00-24:00",
    "type": "family"
  },
  {
    "id": "FM台南011",
    "name": "全家南屯區門市",
    "city": "台中市",
    "district": "南屯區",
    "address": "台中市南屯區建國路378號",
    "phone": "07-5248-5847",
    "services": "影印,代收,傳真,FamiPort,ATM,WiFi,停車場",
    "hours": "06:00-24:00",
    "type": "family"
  },
  {
    "id": "FM台南004",
    "name": "全家台中市04店",
    "city": "台中市",
    "district": "南屯區",
    "address": "台中市南屯區復興路469號",
    "phone": "06-7435-1227",
    "services": "代收,冷凍宅配,ATM",
    "hours": "24小時",
    "type": "family"
  },
  {
    "id": "FM台大005",
    "name": "全家台中市05店",
    "city": "台中市",
    "district": "大里區",
    "address": "台中市大里區民生路10號",
    "phone": "02-3549-3946",
    "services": "影印,Let's Café,WiFi,廁所",
    "hours": "07:00-23:00",
    "type": "family"
  },
  {
    "id": "FM台大013",
    "name": "全家台中市13店",
    "city": "台中市",
    "district": "大里區",
    "address": "台中市大里區仁愛路480號",
    "phone": "08-6686-1229",
    "services": "FamiPort,WiFi,代收,傳真,Let's Café,冷凍宅配,宅配",
    "hours": "06:00-24:00",
    "type": "family"
  },
  {
    "id": "FM台大001",
    "name": "全家大里區店",
    "city": "台中市",
    "district": "大里區",
    "address": "台中市大里區仁愛路216號",
    "phone": "02-9893-5021",
    "services": "冷凍宅配,傳真,影印,宅配,代收",
    "hours": "06:00-24:00",
    "type": "family"
  },
  {
    "id": "FM台大010",
    "name": "全家大里區門市",
    "city": "台中市",
    "district": "大里區",
    "address": "台中市大里區中正路90號",
    "phone": "03-7826-3103",
    "services": "影印,ATM,廁所,宅配",
    "hours": "24小時",
    "type": "family"
  },
  {
    "id": "FM台大017",
    "name": "全家大里區門市",
    "city": "台中市",
    "district": "大里區",
    "address": "台中市大里區中正路496號",
    "phone": "06-6832-7757",
    "services": "廁所,FamiPort,ATM,冷凍宅配,影印",
    "hours": "06:00-24:00",
    "type": "family"
  },
  {
    "id": "FM台大002",
    "name": "全家民生路店",
    "city": "台中市",
    "district": "大里區",
    "address": "台中市大里區民生路165號",
    "phone": "05-3037-1967",
    "services": "傳真,店到店,冷凍宅配",
    "hours": "07:00-23:00",
    "type": "family"
  },
  {
    "id": "FM台太003",
    "name": "全家台中市03店",
    "city": "台中市",
    "district": "太平區",
    "address": "台中市太平區信義路409號",
    "phone": "03-4995-6462",
    "services": "店到店,停車場,ATM,宅配,FamiPort",
    "hours": "07:00-23:00",
    "type": "family"
  },
  {
    "id": "FM台東012",
    "name": "全家忠孝路店",
    "city": "台中市",
    "district": "東區",
    "address": "台中市東區忠孝路212號",
    "phone": "05-4785-5595",
    "services": "廁所,冷凍宅配,WiFi,ATM,影印,Let's Café,傳真",
    "hours": "06:00-24:00",
    "type": "family"
  },
  {
    "id": "FM台東007",
    "name": "全家東區店",
    "city": "台中市",
    "district": "東區",
    "address": "台中市東區和平路124號",
    "phone": "03-7544-8547",
    "services": "FamiPort,ATM,傳真",
    "hours": "07:00-23:00",
    "type": "family"
  },
  {
    "id": "FM台西016",
    "name": "全家西區門市",
    "city": "台中市",
    "district": "西區",
    "address": "台中市西區中正路402號",
    "phone": "04-6305-4116",
    "services": "影印,停車場,Let's Café,代收,傳真,店到店,冷凍宅配",
    "hours": "24小時",
    "type": "family"
  },
  {
    "id": "FM台西014",
    "name": "全家台中市14店",
    "city": "台中市",
    "district": "西屯區",
    "address": "台中市西屯區中正路340號",
    "phone": "05-8707-7966",
    "services": "Let's Café,宅配,影印",
    "hours": "06:00-24:00",
    "type": "family"
  },
  {
    "id": "FM台西006",
    "name": "全家西屯區店",
    "city": "台中市",
    "district": "西屯區",
    "address": "台中市西屯區自由路23號",
    "phone": "05-2875-6046",
    "services": "傳真,廁所,WiFi,ATM,店到店",
    "hours": "07:00-23:00",
    "type": "family"
  },
  {
    "id": "FM台中005",
    "name": "全家中山區店",
    "city": "台北市",
    "district": "中山區",
    "address": "台北市中山區中正路364號",
    "phone": "06-7077-1410",
    "services": "冷凍宅配,店到店,FamiPort,代收,ATM,WiFi",
    "hours": "24小時",
    "type": "family"
  },
  {
    "id": "FM台中006",
    "name": "全家中山路店",
    "city": "台北市",
    "district": "中正區",
    "address": "台北市中正區中山路146號",
    "phone": "05-6904-1420",
    "services": "廁所,傳真,Let's Café,店到店,停車場,WiFi",
    "hours": "24小時",
    "type": "family"
  },
  {
    "id": "FM台信016",
    "name": "全家信義區店",
    "city": "台北市",
    "district": "信義區",
    "address": "台北市信義區建國路194號",
    "phone": "02-2122-2321",
    "services": "傳真,ATM,影印,Let's Café,冷凍宅配",
    "hours": "24小時",
    "type": "family"
  },
  {
    "id": "FM台北020",
    "name": "全家台北市20店",
    "city": "台北市",
    "district": "北投區",
    "address": "台北市北投區中山路255號",
    "phone": "05-2540-2384",
    "services": "WiFi,代收,宅配,FamiPort",
    "hours": "06:00-24:00",
    "type": "family"
  },
  {
    "id": "FM台南015",
    "name": "全家南港區店",
    "city": "台北市",
    "district": "南港區",
    "address": "台北市南港區和平路66號",
    "phone": "04-7855-2754",
    "services": "Let's Café,WiFi,冷凍宅配",
    "hours": "07:00-23:00",
    "type": "family"
  },
  {
    "id": "FM台南008",
    "name": "全家南港區門市",
    "city": "台北市",
    "district": "南港區",
    "address": "台北市南港區復興路138號",
    "phone": "02-8027-4784",
    "services": "冷凍宅配,店到店,傳真,代收,WiFi,廁所,Let's Café",
    "hours": "07:00-23:00",
    "type": "family"
  },
  {
    "id": "FM台南012",
    "name": "全家南港區門市",
    "city": "台北市",
    "district": "南港區",
    "address": "台北市南港區忠孝路132號",
    "phone": "03-7405-2691",
    "services": "停車場,FamiPort,WiFi,Let's Café",
    "hours": "06:00-24:00",
    "type": "family"
  },
  {
    "id": "FM台士001",
    "name": "全家和平路店",
    "city": "台北市",
    "district": "士林區",
    "address": "台北市士林區和平路276號",
    "phone": "02-2265-1178",
    "services": "冷凍宅配,廁所,FamiPort,ATM,WiFi,影印",
    "hours": "24小時",
    "type": "family"
  },
  {
    "id": "FM台士021",
    "name": "全家和平路店",
    "city": "台北市",
    "district": "士林區",
    "address": "台北市士林區和平路292號",
    "phone": "07-4441-2853",
    "services": "影印,停車場,廁所,代收,店到店,宅配",
    "hours": "06:00-24:00",
    "type": "family"
  },
  {
    "id": "FM台士022",
    "name": "全家士林區店",
    "city": "台北市",
    "district": "士林區",
    "address": "台北市士林區自由路468號",
    "phone": "03-5625-8613",
    "services": "冷凍宅配,FamiPort,廁所,ATM,代收",
    "hours": "07:00-23:00",
    "type": "family"
  },
  {
    "id": "FM台士024",
    "name": "全家士林區門市",
    "city": "台北市",
    "district": "士林區",
    "address": "台北市士林區忠孝路116號",
    "phone": "05-3440-6758",
    "services": "停車場,傳真,影印,廁所,冷凍宅配,宅配",
    "hours": "24小時",
    "type": "family"
  },
  {
    "id": "FM台大009",
    "name": "全家台北市09店",
    "city": "台北市",
    "district": "大同區",
    "address": "台北市大同區信義路310號",
    "phone": "05-5972-3735",
    "services": "ATM,代收,FamiPort,Let's Café,宅配,店到店",
    "hours": "07:00-23:00",
    "type": "family"
  },
  {
    "id": "FM台大007",
    "name": "全家大安區店",
    "city": "台北市",
    "district": "大安區",
    "address": "台北市大安區忠孝路153號",
    "phone": "08-5139-4539",
    "services": "店到店,宅配,廁所,影印",
    "hours": "24小時",
    "type": "family"
  },
  {
    "id": "FM台文014",
    "name": "全家台北市14店",
    "city": "台北市",
    "district": "文山區",
    "address": "台北市文山區復興路388號",
    "phone": "02-2506-4028",
    "services": "傳真,廁所,宅配,店到店,FamiPort,WiFi",
    "hours": "24小時",
    "type": "family"
  },
  {
    "id": "FM台文003",
    "name": "全家文山區店",
    "city": "台北市",
    "district": "文山區",
    "address": "台北市文山區忠孝路332號",
    "phone": "05-5805-6388",
    "services": "Let's Café,FamiPort,店到店",
    "hours": "24小時",
    "type": "family"
  },
  {
    "id": "FM台文018",
    "name": "全家文山區門市",
    "city": "台北市",
    "district": "文山區",
    "address": "台北市文山區自由路6號",
    "phone": "07-7432-8981",
    "services": "WiFi,冷凍宅配,Let's Café,停車場,影印,代收,店到店",
    "hours": "07:00-23:00",
    "type": "family"
  },
  {
    "id": "FM台松010",
    "name": "全家信義路店",
    "city": "台北市",
    "district": "松山區",
    "address": "台北市松山區信義路246號",
    "phone": "07-4597-7325",
    "services": "影印,停車場,代收,ATM,廁所,冷凍宅配,Let's Café",
    "hours": "24小時",
    "type": "family"
  },
  {
    "id": "FM台萬013",
    "name": "全家中山路店",
    "city": "台北市",
    "district": "萬華區",
    "address": "台北市萬華區中山路454號",
    "phone": "04-7570-5734",
    "services": "宅配,廁所,店到店,代收",
    "hours": "24小時",
    "type": "family"
  },
  {
    "id": "FM台萬002",
    "name": "全家台北市02店",
    "city": "台北市",
    "district": "萬華區",
    "address": "台北市萬華區中山路155號",
    "phone": "05-3561-4146",
    "services": "停車場,代收,傳真,影印,ATM,WiFi",
    "hours": "06:00-24:00",
    "type": "family"
  },
  {
    "id": "FM台萬019",
    "name": "全家民生路店",
    "city": "台北市",
    "district": "萬華區",
    "address": "台北市萬華區民生路368號",
    "phone": "06-3733-9305",
    "services": "冷凍宅配,傳真,影印",
    "hours": "24小時",
    "type": "family"
  },
  {
    "id": "FM台萬023",
    "name": "全家萬華區門市",
    "city": "台北市",
    "district": "萬華區",
    "address": "台北市萬華區中山路140號",
    "phone": "09-2404-6620",
    "services": "廁所,冷凍宅配,影印",
    "hours": "24小時",
    "type": "family"
  },
  {
    "id": "FM台台016",
    "name": "全家信義路店",
    "city": "台南市",
    "district": "台南市中心區",
    "address": "台南市台南市中心區信義路463號",
    "phone": "03-6319-7350",
    "services": "代收,影印,傳真,店到店,ATM",
    "hours": "06:00-24:00",
    "type": "family"
  },
  {
    "id": "FM台台013",
    "name": "全家台南市13店",
    "city": "台南市",
    "district": "台南市中心區",
    "address": "台南市台南市中心區自由路419號",
    "phone": "04-8107-1837",
    "services": "宅配,傳真,WiFi,代收",
    "hours": "07:00-23:00",
    "type": "family"
  },
  {
    "id": "FM台台009",
    "name": "全家台南市中心區店",
    "city": "台南市",
    "district": "台南市中心區",
    "address": "台南市台南市中心區民生路23號",
    "phone": "03-4354-3145",
    "services": "停車場,影印,冷凍宅配,傳真,廁所,ATM",
    "hours": "06:00-24:00",
    "type": "family"
  },
  {
    "id": "FM台台006",
    "name": "全家台南市中心區門市",
    "city": "台南市",
    "district": "台南市中心區",
    "address": "台南市台南市中心區建國路113號",
    "phone": "04-6571-5731",
    "services": "冷凍宅配,代收,Let's Café,廁所,店到店,影印,停車場",
    "hours": "07:00-23:00",
    "type": "family"
  },
  {
    "id": "FM台台011",
    "name": "全家中山路店",
    "city": "台南市",
    "district": "台南市東區",
    "address": "台南市台南市東區中山路55號",
    "phone": "04-4196-2237",
    "services": "代收,宅配,停車場",
    "hours": "07:00-23:00",
    "type": "family"
  },
  {
    "id": "FM台台018",
    "name": "全家中山路店",
    "city": "台南市",
    "district": "台南市東區",
    "address": "台南市台南市東區中山路138號",
    "phone": "04-8434-6303",
    "services": "冷凍宅配,影印,宅配,店到店",
    "hours": "06:00-24:00",
    "type": "family"
  },
  {
    "id": "FM台台014",
    "name": "全家台南市東區店",
    "city": "台南市",
    "district": "台南市東區",
    "address": "台南市台南市東區忠孝路219號",
    "phone": "06-2907-1567",
    "services": "FamiPort,傳真,宅配,停車場,Let's Café",
    "hours": "24小時",
    "type": "family"
  },
  {
    "id": "FM台台017",
    "name": "全家台南市東區門市",
    "city": "台南市",
    "district": "台南市東區",
    "address": "台南市台南市東區復興路275號",
    "phone": "06-5332-6727",
    "services": "停車場,ATM,WiFi",
    "hours": "07:00-23:00",
    "type": "family"
  },
  {
    "id": "FM台台010",
    "name": "全家仁愛路店",
    "city": "台南市",
    "district": "台南市西區",
    "address": "台南市台南市西區仁愛路170號",
    "phone": "08-6153-9880",
    "services": "代收,傳真,Let's Café,WiFi,影印",
    "hours": "24小時",
    "type": "family"
  },
  {
    "id": "FM台台005",
    "name": "全家台南市05店",
    "city": "台南市",
    "district": "台南市西區",
    "address": "台南市台南市西區建國路223號",
    "phone": "08-5967-2392",
    "services": "ATM,影印,Let's Café,代收,FamiPort",
    "hours": "24小時",
    "type": "family"
  },
  {
    "id": "FM台台012",
    "name": "全家台南市12店",
    "city": "台南市",
    "district": "台南市西區",
    "address": "台南市台南市西區自由路138號",
    "phone": "07-4464-8638",
    "services": "廁所,代收,影印",
    "hours": "06:00-24:00",
    "type": "family"
  },
  {
    "id": "FM台台015",
    "name": "全家台南市15店",
    "city": "台南市",
    "district": "台南市西區",
    "address": "台南市台南市西區忠孝路142號",
    "phone": "03-6546-6004",
    "services": "冷凍宅配,代收,影印",
    "hours": "07:00-23:00",
    "type": "family"
  },
  {
    "id": "FM台台007",
    "name": "全家台南市西區門市",
    "city": "台南市",
    "district": "台南市西區",
    "address": "台南市台南市西區自由路417號",
    "phone": "05-5724-7708",
    "services": "傳真,影印,停車場,冷凍宅配",
    "hours": "06:00-24:00",
    "type": "family"
  },
  {
    "id": "FM台台008",
    "name": "全家民生路店",
    "city": "台南市",
    "district": "台南市西區",
    "address": "台南市台南市西區民生路496號",
    "phone": "06-6280-1445",
    "services": "影印,停車場,廁所",
    "hours": "24小時",
    "type": "family"
  },
  {
    "id": "FM台台003",
    "name": "全家台東縣中心區店",
    "city": "台東縣",
    "district": "台東縣中心區",
    "address": "台東縣台東縣中心區忠孝路100號",
    "phone": "06-4315-6203",
    "services": "影印,冷凍宅配,店到店,ATM,宅配",
    "hours": "24小時",
    "type": "family"
  },
  {
    "id": "FM台台001",
    "name": "全家和平路店",
    "city": "台東縣",
    "district": "台東縣中心區",
    "address": "台東縣台東縣中心區和平路237號",
    "phone": "07-5888-7112",
    "services": "Let's Café,廁所,宅配,ATM,影印",
    "hours": "24小時",
    "type": "family"
  },
  {
    "id": "FM台台002",
    "name": "全家台東縣02店",
    "city": "台東縣",
    "district": "台東縣東區",
    "address": "台東縣台東縣東區中正路407號",
    "phone": "06-2472-9823",
    "services": "ATM,Let's Café,影印,冷凍宅配,宅配,代收",
    "hours": "24小時",
    "type": "family"
  },
  {
    "id": "FM台台004",
    "name": "全家台東縣04店",
    "city": "台東縣",
    "district": "台東縣西區",
    "address": "台東縣台東縣西區和平路334號",
    "phone": "07-6687-1803",
    "services": "停車場,傳真,WiFi",
    "hours": "07:00-23:00",
    "type": "family"
  },
  {
    "id": "FM嘉嘉001",
    "name": "全家嘉義市中心區店",
    "city": "嘉義市",
    "district": "嘉義市中心區",
    "address": "嘉義市嘉義市中心區忠孝路323號",
    "phone": "06-4877-7132",
    "services": "WiFi,冷凍宅配,影印,廁所,Let's Café,停車場",
    "hours": "24小時",
    "type": "family"
  },
  {
    "id": "FM嘉嘉005",
    "name": "全家嘉義市中心區店",
    "city": "嘉義市",
    "district": "嘉義市中心區",
    "address": "嘉義市嘉義市中心區中山路377號",
    "phone": "08-3140-3946",
    "services": "冷凍宅配,FamiPort,停車場,廁所,代收",
    "hours": "07:00-23:00",
    "type": "family"
  },
  {
    "id": "FM嘉嘉003",
    "name": "全家自由路店",
    "city": "嘉義市",
    "district": "嘉義市中心區",
    "address": "嘉義市嘉義市中心區自由路95號",
    "phone": "05-9991-3473",
    "services": "廁所,店到店,冷凍宅配",
    "hours": "24小時",
    "type": "family"
  },
  {
    "id": "FM嘉嘉002",
    "name": "全家嘉義市東區店",
    "city": "嘉義市",
    "district": "嘉義市東區",
    "address": "嘉義市嘉義市東區忠孝路11號",
    "phone": "03-9014-6682",
    "services": "WiFi,停車場,傳真,代收,廁所",
    "hours": "06:00-24:00",
    "type": "family"
  },
  {
    "id": "FM嘉嘉004",
    "name": "全家嘉義市04店",
    "city": "嘉義市",
    "district": "嘉義市西區",
    "address": "嘉義市嘉義市西區信義路371號",
    "phone": "09-7413-4936",
    "services": "Let's Café,代收,傳真,FamiPort,冷凍宅配,宅配",
    "hours": "24小時",
    "type": "family"
  },
  {
    "id": "FM嘉嘉008",
    "name": "全家嘉義市08店",
    "city": "嘉義市",
    "district": "嘉義市西區",
    "address": "嘉義市嘉義市西區民生路7號",
    "phone": "04-4998-5386",
    "services": "停車場,FamiPort,Let's Café",
    "hours": "24小時",
    "type": "family"
  },
  {
    "id": "FM嘉嘉006",
    "name": "全家嘉義市西區店",
    "city": "嘉義市",
    "district": "嘉義市西區",
    "address": "嘉義市嘉義市西區信義路9號",
    "phone": "06-8760-2447",
    "services": "廁所,宅配,ATM,FamiPort",
    "hours": "06:00-24:00",
    "type": "family"
  },
  {
    "id": "FM嘉嘉007",
    "name": "全家嘉義市西區店",
    "city": "嘉義市",
    "district": "嘉義市西區",
    "address": "嘉義市嘉義市西區中正路311號",
    "phone": "08-2821-7224",
    "services": "宅配,Let's Café,傳真,FamiPort,ATM",
    "hours": "24小時",
    "type": "family"
  },
  {
    "id": "FM基基001",
    "name": "全家基隆市中心區店",
    "city": "基隆市",
    "district": "基隆市中心區",
    "address": "基隆市基隆市中心區自由路11號",
    "phone": "06-2772-5546",
    "services": "Let's Café,店到店,ATM,冷凍宅配,廁所,影印,停車場",
    "hours": "06:00-24:00",
    "type": "family"
  },
  {
    "id": "FM基基003",
    "name": "全家基隆市中心區店",
    "city": "基隆市",
    "district": "基隆市中心區",
    "address": "基隆市基隆市中心區民生路306號",
    "phone": "09-7839-2323",
    "services": "ATM,FamiPort,冷凍宅配,代收,Let's Café",
    "hours": "06:00-24:00",
    "type": "family"
  },
  {
    "id": "FM基基007",
    "name": "全家基隆市中心區店",
    "city": "基隆市",
    "district": "基隆市中心區",
    "address": "基隆市基隆市中心區和平路376號",
    "phone": "09-5837-3697",
    "services": "傳真,宅配,影印,停車場,冷凍宅配,廁所,店到店",
    "hours": "06:00-24:00",
    "type": "family"
  },
  {
    "id": "FM基基008",
    "name": "全家基隆市中心區門市",
    "city": "基隆市",
    "district": "基隆市中心區",
    "address": "基隆市基隆市中心區中正路134號",
    "phone": "04-7979-4759",
    "services": "FamiPort,代收,宅配",
    "hours": "24小時",
    "type": "family"
  },
  {
    "id": "FM基基005",
    "name": "全家建國路店",
    "city": "基隆市",
    "district": "基隆市中心區",
    "address": "基隆市基隆市中心區建國路1號",
    "phone": "04-5101-7871",
    "services": "影印,停車場,ATM",
    "hours": "06:00-24:00",
    "type": "family"
  },
  {
    "id": "FM基基006",
    "name": "全家基隆市東區店",
    "city": "基隆市",
    "district": "基隆市東區",
    "address": "基隆市基隆市東區仁愛路272號",
    "phone": "02-5355-3615",
    "services": "冷凍宅配,宅配,FamiPort,店到店,WiFi",
    "hours": "24小時",
    "type": "family"
  },
  {
    "id": "FM基基002",
    "name": "全家基隆市東區門市",
    "city": "基隆市",
    "district": "基隆市東區",
    "address": "基隆市基隆市東區復興路124號",
    "phone": "05-6472-7135",
    "services": "Let's Café,冷凍宅配,ATM,FamiPort,停車場,WiFi,影印",
    "hours": "07:00-23:00",
    "type": "family"
  },
  {
    "id": "FM基基004",
    "name": "全家基隆市04店",
    "city": "基隆市",
    "district": "基隆市西區",
    "address": "基隆市基隆市西區復興路44號",
    "phone": "03-7898-4946",
    "services": "Let's Café,停車場,ATM,宅配,代收",
    "hours": "07:00-23:00",
    "type": "family"
  },
  {
    "id": "FM宜宜002",
    "name": "全家宜蘭縣中心區店",
    "city": "宜蘭縣",
    "district": "宜蘭縣中心區",
    "address": "宜蘭縣宜蘭縣中心區信義路471號",
    "phone": "08-6061-3379",
    "services": "冷凍宅配,停車場,代收",
    "hours": "07:00-23:00",
    "type": "family"
  },
  {
    "id": "FM宜宜004",
    "name": "全家宜蘭縣中心區門市",
    "city": "宜蘭縣",
    "district": "宜蘭縣中心區",
    "address": "宜蘭縣宜蘭縣中心區民生路257號",
    "phone": "09-7917-5278",
    "services": "Let's Café,傳真,FamiPort,冷凍宅配",
    "hours": "24小時",
    "type": "family"
  },
  {
    "id": "FM宜宜005",
    "name": "全家宜蘭縣05店",
    "city": "宜蘭縣",
    "district": "宜蘭縣東區",
    "address": "宜蘭縣宜蘭縣東區仁愛路452號",
    "phone": "02-6015-8009",
    "services": "代收,廁所,停車場,ATM,傳真",
    "hours": "07:00-23:00",
    "type": "family"
  },
  {
    "id": "FM宜宜001",
    "name": "全家宜蘭縣東區門市",
    "city": "宜蘭縣",
    "district": "宜蘭縣東區",
    "address": "宜蘭縣宜蘭縣東區仁愛路454號",
    "phone": "04-7938-1512",
    "services": "宅配,停車場,代收,Let's Café,FamiPort",
    "hours": "07:00-23:00",
    "type": "family"
  },
  {
    "id": "FM宜宜003",
    "name": "全家忠孝路店",
    "city": "宜蘭縣",
    "district": "宜蘭縣東區",
    "address": "宜蘭縣宜蘭縣東區忠孝路372號",
    "phone": "06-4251-9934",
    "services": "Let's Café,冷凍宅配,FamiPort",
    "hours": "07:00-23:00",
    "type": "family"
  },
  {
    "id": "FM屏屏001",
    "name": "全家信義路店",
    "city": "屏東縣",
    "district": "屏東縣中心區",
    "address": "屏東縣屏東縣中心區信義路83號",
    "phone": "04-6010-4567",
    "services": "宅配,代收,冷凍宅配,ATM,傳真,WiFi",
    "hours": "24小時",
    "type": "family"
  },
  {
    "id": "FM屏屏006",
    "name": "全家屏東縣中心區店",
    "city": "屏東縣",
    "district": "屏東縣中心區",
    "address": "屏東縣屏東縣中心區自由路224號",
    "phone": "05-8093-4637",
    "services": "傳真,冷凍宅配,停車場,Let's Café",
    "hours": "24小時",
    "type": "family"
  },
  {
    "id": "FM屏屏002",
    "name": "全家中山路店",
    "city": "屏東縣",
    "district": "屏東縣東區",
    "address": "屏東縣屏東縣東區中山路440號",
    "phone": "08-3270-7339",
    "services": "影印,Let's Café,停車場,WiFi,傳真,FamiPort",
    "hours": "24小時",
    "type": "family"
  },
  {
    "id": "FM屏屏007",
    "name": "全家屏東縣東區店",
    "city": "屏東縣",
    "district": "屏東縣東區",
    "address": "屏東縣屏東縣東區信義路52號",
    "phone": "06-6822-2834",
    "services": "宅配,FamiPort,ATM,店到店,停車場",
    "hours": "24小時",
    "type": "family"
  },
  {
    "id": "FM屏屏008",
    "name": "全家屏東縣東區店",
    "city": "屏東縣",
    "district": "屏東縣東區",
    "address": "屏東縣屏東縣東區自由路322號",
    "phone": "08-6717-8253",
    "services": "傳真,店到店,代收",
    "hours": "06:00-24:00",
    "type": "family"
  },
  {
    "id": "FM屏屏010",
    "name": "全家屏東縣東區門市",
    "city": "屏東縣",
    "district": "屏東縣東區",
    "address": "屏東縣屏東縣東區復興路305號",
    "phone": "04-3592-1844",
    "services": "店到店,停車場,WiFi,傳真,冷凍宅配,影印,代收",
    "hours": "24小時",
    "type": "family"
  },
  {
    "id": "FM屏屏004",
    "name": "全家屏東縣04店",
    "city": "屏東縣",
    "district": "屏東縣西區",
    "address": "屏東縣屏東縣西區中山路229號",
    "phone": "08-9901-7229",
    "services": "傳真,宅配,冷凍宅配,FamiPort,店到店,影印",
    "hours": "24小時",
    "type": "family"
  },
  {
    "id": "FM屏屏003",
    "name": "全家屏東縣西區店",
    "city": "屏東縣",
    "district": "屏東縣西區",
    "address": "屏東縣屏東縣西區忠孝路115號",
    "phone": "02-8466-4940",
    "services": "ATM,冷凍宅配,FamiPort,傳真,影印",
    "hours": "24小時",
    "type": "family"
  },
  {
    "id": "FM屏屏005",
    "name": "全家屏東縣西區門市",
    "city": "屏東縣",
    "district": "屏東縣西區",
    "address": "屏東縣屏東縣西區自由路85號",
    "phone": "04-9395-6339",
    "services": "冷凍宅配,停車場,代收,廁所",
    "hours": "06:00-24:00",
    "type": "family"
  },
  {
    "id": "FM屏屏009",
    "name": "全家屏東縣西區門市",
    "city": "屏東縣",
    "district": "屏東縣西區",
    "address": "屏東縣屏東縣西區中正路7號",
    "phone": "09-4585-4820",
    "services": "WiFi,代收,Let's Café,店到店,FamiPort",
    "hours": "24小時",
    "type": "family"
  },
  {
    "id": "FM彰彰001",
    "name": "全家彰化縣01店",
    "city": "彰化縣",
    "district": "彰化縣中心區",
    "address": "彰化縣彰化縣中心區建國路412號",
    "phone": "07-3151-8500",
    "services": "店到店,ATM,FamiPort,代收,影印,停車場",
    "hours": "24小時",
    "type": "family"
  },
  {
    "id": "FM彰彰003",
    "name": "全家彰化縣中心區店",
    "city": "彰化縣",
    "district": "彰化縣中心區",
    "address": "彰化縣彰化縣中心區民生路244號",
    "phone": "09-2064-4140",
    "services": "WiFi,ATM,影印,冷凍宅配,Let's Café,傳真",
    "hours": "07:00-23:00",
    "type": "family"
  },
  {
    "id": "FM彰彰004",
    "name": "全家彰化縣中心區店",
    "city": "彰化縣",
    "district": "彰化縣中心區",
    "address": "彰化縣彰化縣中心區忠孝路237號",
    "phone": "05-4430-9244",
    "services": "ATM,代收,冷凍宅配,Let's Café,WiFi,宅配",
    "hours": "07:00-23:00",
    "type": "family"
  },
  {
    "id": "FM彰彰006",
    "name": "全家和平路店",
    "city": "彰化縣",
    "district": "彰化縣東區",
    "address": "彰化縣彰化縣東區和平路291號",
    "phone": "05-6110-5913",
    "services": "FamiPort,代收,店到店,廁所",
    "hours": "24小時",
    "type": "family"
  },
  {
    "id": "FM彰彰005",
    "name": "全家中山路店",
    "city": "彰化縣",
    "district": "彰化縣西區",
    "address": "彰化縣彰化縣西區中山路82號",
    "phone": "06-7456-9430",
    "services": "停車場,WiFi,店到店,傳真",
    "hours": "07:00-23:00",
    "type": "family"
  },
  {
    "id": "FM彰彰002",
    "name": "全家彰化縣02店",
    "city": "彰化縣",
    "district": "彰化縣西區",
    "address": "彰化縣彰化縣西區復興路226號",
    "phone": "04-4717-9769",
    "services": "WiFi,FamiPort,代收",
    "hours": "07:00-23:00",
    "type": "family"
  },
  {
    "id": "FM新三018",
    "name": "全家三峽區店",
    "city": "新北市",
    "district": "三峽區",
    "address": "新北市三峽區民生路348號",
    "phone": "03-8653-1520",
    "services": "FamiPort,Let's Café,廁所,停車場",
    "hours": "07:00-23:00",
    "type": "family"
  },
  {
    "id": "FM新三015",
    "name": "全家三峽區門市",
    "city": "新北市",
    "district": "三峽區",
    "address": "新北市三峽區和平路12號",
    "phone": "08-9527-1295",
    "services": "ATM,宅配,FamiPort,WiFi,冷凍宅配",
    "hours": "24小時",
    "type": "family"
  },
  {
    "id": "FM新三016",
    "name": "全家和平路店",
    "city": "新北市",
    "district": "三峽區",
    "address": "新北市三峽區和平路76號",
    "phone": "05-7485-1063",
    "services": "店到店,Let's Café,冷凍宅配,廁所,代收,宅配",
    "hours": "07:00-23:00",
    "type": "family"
  },
  {
    "id": "FM新三004",
    "name": "全家新北市04店",
    "city": "新北市",
    "district": "三峽區",
    "address": "新北市三峽區中山路407號",
    "phone": "05-6369-9925",
    "services": "宅配,FamiPort,ATM,廁所,Let's Café,冷凍宅配,代收",
    "hours": "24小時",
    "type": "family"
  },
  {
    "id": "FM新三014",
    "name": "全家新北市14店",
    "city": "新北市",
    "district": "三峽區",
    "address": "新北市三峽區建國路347號",
    "phone": "08-7704-5294",
    "services": "停車場,宅配,冷凍宅配,店到店,影印,傳真",
    "hours": "07:00-23:00",
    "type": "family"
  },
  {
    "id": "FM新中012",
    "name": "全家新北市12店",
    "city": "新北市",
    "district": "中和區",
    "address": "新北市中和區中山路334號",
    "phone": "06-7870-1227",
    "services": "宅配,代收,停車場,ATM",
    "hours": "07:00-23:00",
    "type": "family"
  },
  {
    "id": "FM新新019",
    "name": "全家新店區門市",
    "city": "新北市",
    "district": "新店區",
    "address": "新北市新店區自由路408號",
    "phone": "09-7370-7571",
    "services": "ATM,冷凍宅配,停車場,代收,廁所,FamiPort",
    "hours": "24小時",
    "type": "family"
  },
  {
    "id": "FM新新011",
    "name": "全家新北市11店",
    "city": "新北市",
    "district": "新莊區",
    "address": "新北市新莊區仁愛路389號",
    "phone": "07-8445-3280",
    "services": "ATM,廁所,Let's Café",
    "hours": "06:00-24:00",
    "type": "family"
  },
  {
    "id": "FM新板006",
    "name": "全家新北市06店",
    "city": "新北市",
    "district": "板橋區",
    "address": "新北市板橋區自由路149號",
    "phone": "02-2232-3167",
    "services": "宅配,冷凍宅配,店到店,影印,ATM",
    "hours": "24小時",
    "type": "family"
  },
  {
    "id": "FM新板009",
    "name": "全家新北市09店",
    "city": "新北市",
    "district": "板橋區",
    "address": "新北市板橋區自由路140號",
    "phone": "09-2587-6127",
    "services": "冷凍宅配,宅配,影印",
    "hours": "24小時",
    "type": "family"
  },
  {
    "id": "FM新樹010",
    "name": "全家新北市10店",
    "city": "新北市",
    "district": "樹林區",
    "address": "新北市樹林區信義路45號",
    "phone": "03-6841-8086",
    "services": "停車場,FamiPort,代收,店到店,影印,WiFi,冷凍宅配",
    "hours": "06:00-24:00",
    "type": "family"
  },
  {
    "id": "FM新樹008",
    "name": "全家樹林區店",
    "city": "新北市",
    "district": "樹林區",
    "address": "新北市樹林區仁愛路395號",
    "phone": "03-8365-2538",
    "services": "廁所,冷凍宅配,停車場,傳真,影印,FamiPort,WiFi",
    "hours": "24小時",
    "type": "family"
  },
  {
    "id": "FM新永003",
    "name": "全家忠孝路店",
    "city": "新北市",
    "district": "永和區",
    "address": "新北市永和區忠孝路44號",
    "phone": "03-4670-8220",
    "services": "店到店,代收,廁所,傳真,FamiPort,影印,宅配",
    "hours": "06:00-24:00",
    "type": "family"
  },
  {
    "id": "FM新永017",
    "name": "全家新北市17店",
    "city": "新北市",
    "district": "永和區",
    "address": "新北市永和區中正路416號",
    "phone": "09-8690-4093",
    "services": "傳真,FamiPort,停車場,冷凍宅配,Let's Café,宅配",
    "hours": "24小時",
    "type": "family"
  },
  {
    "id": "FM新永005",
    "name": "全家永和區店",
    "city": "新北市",
    "district": "永和區",
    "address": "新北市永和區民生路285號",
    "phone": "07-2722-3251",
    "services": "代收,FamiPort,Let's Café,宅配,停車場",
    "hours": "07:00-23:00",
    "type": "family"
  },
  {
    "id": "FM新永001",
    "name": "全家永和區門市",
    "city": "新北市",
    "district": "永和區",
    "address": "新北市永和區民生路209號",
    "phone": "09-5143-4198",
    "services": "代收,店到店,WiFi,ATM",
    "hours": "07:00-23:00",
    "type": "family"
  },
  {
    "id": "FM新永007",
    "name": "全家永和區門市",
    "city": "新北市",
    "district": "永和區",
    "address": "新北市永和區中山路103號",
    "phone": "08-2880-3387",
    "services": "影印,WiFi,冷凍宅配,FamiPort",
    "hours": "06:00-24:00",
    "type": "family"
  },
  {
    "id": "FM新永013",
    "name": "全家永和區門市",
    "city": "新北市",
    "district": "永和區",
    "address": "新北市永和區自由路275號",
    "phone": "03-8505-8430",
    "services": "停車場,Let's Café,ATM,影印,FamiPort",
    "hours": "06:00-24:00",
    "type": "family"
  },
  {
    "id": "FM新鶯020",
    "name": "全家新北市20店",
    "city": "新北市",
    "district": "鶯歌區",
    "address": "新北市鶯歌區建國路323號",
    "phone": "04-3423-6161",
    "services": "代收,宅配,Let's Café,影印,ATM,傳真",
    "hours": "24小時",
    "type": "family"
  },
  {
    "id": "FM新新004",
    "name": "全家新竹縣04店",
    "city": "新竹縣",
    "district": "新竹縣中心區",
    "address": "新竹縣新竹縣中心區中山路194號",
    "phone": "05-4299-4593",
    "services": "停車場,ATM,傳真,Let's Café",
    "hours": "24小時",
    "type": "family"
  },
  {
    "id": "FM新新005",
    "name": "全家新竹縣05店",
    "city": "新竹縣",
    "district": "新竹縣中心區",
    "address": "新竹縣新竹縣中心區忠孝路44號",
    "phone": "03-2673-8276",
    "services": "廁所,影印,FamiPort,傳真,停車場,宅配,WiFi",
    "hours": "07:00-23:00",
    "type": "family"
  },
  {
    "id": "FM新新006",
    "name": "全家新竹縣06店",
    "city": "新竹縣",
    "district": "新竹縣中心區",
    "address": "新竹縣新竹縣中心區和平路135號",
    "phone": "03-6023-8986",
    "services": "影印,停車場,ATM",
    "hours": "24小時",
    "type": "family"
  },
  {
    "id": "FM新新001",
    "name": "全家新竹縣01店",
    "city": "新竹縣",
    "district": "新竹縣東區",
    "address": "新竹縣新竹縣東區忠孝路359號",
    "phone": "08-2793-7982",
    "services": "WiFi,宅配,停車場,店到店,Let's Café,廁所,FamiPort",
    "hours": "06:00-24:00",
    "type": "family"
  },
  {
    "id": "FM新新002",
    "name": "全家新竹縣02店",
    "city": "新竹縣",
    "district": "新竹縣東區",
    "address": "新竹縣新竹縣東區自由路24號",
    "phone": "04-5319-9259",
    "services": "代收,冷凍宅配,FamiPort,停車場",
    "hours": "07:00-23:00",
    "type": "family"
  },
  {
    "id": "FM新新003",
    "name": "全家新竹縣西區店",
    "city": "新竹縣",
    "district": "新竹縣西區",
    "address": "新竹縣新竹縣西區中正路161號",
    "phone": "05-6641-4675",
    "services": "廁所,宅配,店到店,Let's Café,代收",
    "hours": "24小時",
    "type": "family"
  },
  {
    "id": "FM桃桃003",
    "name": "全家忠孝路店",
    "city": "桃園市",
    "district": "桃園市中心區",
    "address": "桃園市桃園市中心區忠孝路239號",
    "phone": "06-5683-5196",
    "services": "ATM,冷凍宅配,FamiPort,停車場,Let's Café",
    "hours": "24小時",
    "type": "family"
  },
  {
    "id": "FM桃桃006",
    "name": "全家桃園市06店",
    "city": "桃園市",
    "district": "桃園市中心區",
    "address": "桃園市桃園市中心區和平路64號",
    "phone": "06-2650-2468",
    "services": "WiFi,影印,廁所,宅配,Let's Café",
    "hours": "06:00-24:00",
    "type": "family"
  },
  {
    "id": "FM桃桃008",
    "name": "全家桃園市08店",
    "city": "桃園市",
    "district": "桃園市中心區",
    "address": "桃園市桃園市中心區復興路318號",
    "phone": "06-8174-7479",
    "services": "傳真,停車場,FamiPort,宅配,廁所,代收,冷凍宅配",
    "hours": "06:00-24:00",
    "type": "family"
  },
  {
    "id": "FM桃桃001",
    "name": "全家桃園市中心區店",
    "city": "桃園市",
    "district": "桃園市中心區",
    "address": "桃園市桃園市中心區信義路313號",
    "phone": "03-2723-2941",
    "services": "影印,WiFi,代收",
    "hours": "06:00-24:00",
    "type": "family"
  },
  {
    "id": "FM桃桃010",
    "name": "全家桃園市中心區門市",
    "city": "桃園市",
    "district": "桃園市中心區",
    "address": "桃園市桃園市中心區自由路62號",
    "phone": "06-3179-6935",
    "services": "FamiPort,宅配,廁所,Let's Café,WiFi,店到店,傳真",
    "hours": "24小時",
    "type": "family"
  },
  {
    "id": "FM桃桃011",
    "name": "全家中正路店",
    "city": "桃園市",
    "district": "桃園市東區",
    "address": "桃園市桃園市東區中正路408號",
    "phone": "07-2894-6875",
    "services": "停車場,廁所,冷凍宅配,Let's Café,代收,FamiPort",
    "hours": "06:00-24:00",
    "type": "family"
  },
  {
    "id": "FM桃桃002",
    "name": "全家桃園市東區店",
    "city": "桃園市",
    "district": "桃園市東區",
    "address": "桃園市桃園市東區中正路270號",
    "phone": "09-2188-1737",
    "services": "廁所,影印,冷凍宅配,店到店,Let's Café",
    "hours": "07:00-23:00",
    "type": "family"
  },
  {
    "id": "FM桃桃012",
    "name": "全家桃園市12店",
    "city": "桃園市",
    "district": "桃園市西區",
    "address": "桃園市桃園市西區復興路429號",
    "phone": "08-5983-2189",
    "services": "Let's Café,冷凍宅配,店到店,ATM,WiFi",
    "hours": "06:00-24:00",
    "type": "family"
  },
  {
    "id": "FM桃桃007",
    "name": "全家桃園市西區店",
    "city": "桃園市",
    "district": "桃園市西區",
    "address": "桃園市桃園市西區中山路178號",
    "phone": "07-2104-1538",
    "services": "宅配,FamiPort,影印,WiFi",
    "hours": "24小時",
    "type": "family"
  },
  {
    "id": "FM桃桃004",
    "name": "全家桃園市西區門市",
    "city": "桃園市",
    "district": "桃園市西區",
    "address": "桃園市桃園市西區信義路218號",
    "phone": "04-5513-6502",
    "services": "WiFi,Let's Café,冷凍宅配",
    "hours": "07:00-23:00",
    "type": "family"
  },
  {
    "id": "FM桃桃005",
    "name": "全家桃園市西區門市",
    "city": "桃園市",
    "district": "桃園市西區",
    "address": "桃園市桃園市西區自由路169號",
    "phone": "08-5432-9458",
    "services": "廁所,代收,ATM",
    "hours": "06:00-24:00",
    "type": "family"
  },
  {
    "id": "FM桃桃009",
    "name": "全家桃園市西區門市",
    "city": "桃園市",
    "district": "桃園市西區",
    "address": "桃園市桃園市西區忠孝路92號",
    "phone": "07-5422-9403",
    "services": "FamiPort,ATM,店到店,冷凍宅配",
    "hours": "06:00-24:00",
    "type": "family"
  },
  {
    "id": "FM桃桃013",
    "name": "全家桃園市西區門市",
    "city": "桃園市",
    "district": "桃園市西區",
    "address": "桃園市桃園市西區復興路362號",
    "phone": "02-8483-2874",
    "services": "傳真,宅配,Let's Café,ATM",
    "hours": "24小時",
    "type": "family"
  },
  {
    "id": "FM澎澎001",
    "name": "全家澎湖縣01店",
    "city": "澎湖縣",
    "district": "澎湖縣中心區",
    "address": "澎湖縣澎湖縣中心區自由路83號",
    "phone": "04-9759-2934",
    "services": "代收,廁所,影印,Let's Café,ATM,傳真,冷凍宅配",
    "hours": "24小時",
    "type": "family"
  },
  {
    "id": "FM澎澎004",
    "name": "全家澎湖縣04店",
    "city": "澎湖縣",
    "district": "澎湖縣中心區",
    "address": "澎湖縣澎湖縣中心區和平路157號",
    "phone": "02-8611-8340",
    "services": "宅配,廁所,代收",
    "hours": "06:00-24:00",
    "type": "family"
  },
  {
    "id": "FM澎澎003",
    "name": "全家澎湖縣03店",
    "city": "澎湖縣",
    "district": "澎湖縣西區",
    "address": "澎湖縣澎湖縣西區自由路330號",
    "phone": "07-3952-4478",
    "services": "Let's Café,代收,傳真,ATM,影印,WiFi,停車場",
    "hours": "06:00-24:00",
    "type": "family"
  },
  {
    "id": "FM澎澎002",
    "name": "全家澎湖縣西區門市",
    "city": "澎湖縣",
    "district": "澎湖縣西區",
    "address": "澎湖縣澎湖縣西區和平路380號",
    "phone": "06-6297-7069",
    "services": "WiFi,代收,店到店,傳真,冷凍宅配,Let's Café,FamiPort",
    "hours": "06:00-24:00",
    "type": "family"
  },
  {
    "id": "FM花花001",
    "name": "全家花蓮縣01店",
    "city": "花蓮縣",
    "district": "花蓮縣中心區",
    "address": "花蓮縣花蓮縣中心區自由路219號",
    "phone": "02-2194-7208",
    "services": "Let's Café,宅配,ATM,廁所,店到店,影印,冷凍宅配",
    "hours": "24小時",
    "type": "family"
  },
  {
    "id": "FM花花002",
    "name": "全家花蓮縣02店",
    "city": "花蓮縣",
    "district": "花蓮縣中心區",
    "address": "花蓮縣花蓮縣中心區仁愛路272號",
    "phone": "06-8557-5056",
    "services": "店到店,廁所,FamiPort,ATM,冷凍宅配",
    "hours": "07:00-23:00",
    "type": "family"
  },
  {
    "id": "FM花花003",
    "name": "全家花蓮縣03店",
    "city": "花蓮縣",
    "district": "花蓮縣中心區",
    "address": "花蓮縣花蓮縣中心區自由路372號",
    "phone": "03-7042-1505",
    "services": "Let's Café,廁所,代收,店到店,影印,WiFi,FamiPort",
    "hours": "24小時",
    "type": "family"
  },
  {
    "id": "FM花花005",
    "name": "全家花蓮縣東區店",
    "city": "花蓮縣",
    "district": "花蓮縣東區",
    "address": "花蓮縣花蓮縣東區信義路71號",
    "phone": "07-6483-7005",
    "services": "FamiPort,傳真,WiFi,冷凍宅配,店到店,停車場",
    "hours": "06:00-24:00",
    "type": "family"
  },
  {
    "id": "FM花花007",
    "name": "全家信義路店",
    "city": "花蓮縣",
    "district": "花蓮縣西區",
    "address": "花蓮縣花蓮縣西區信義路466號",
    "phone": "08-9879-3755",
    "services": "停車場,宅配,代收,店到店,傳真,影印",
    "hours": "24小時",
    "type": "family"
  },
  {
    "id": "FM花花008",
    "name": "全家自由路店",
    "city": "花蓮縣",
    "district": "花蓮縣西區",
    "address": "花蓮縣花蓮縣西區自由路428號",
    "phone": "09-6127-5976",
    "services": "停車場,WiFi,傳真,店到店",
    "hours": "07:00-23:00",
    "type": "family"
  },
  {
    "id": "FM花花006",
    "name": "全家花蓮縣06店",
    "city": "花蓮縣",
    "district": "花蓮縣西區",
    "address": "花蓮縣花蓮縣西區中山路472號",
    "phone": "07-6872-7452",
    "services": "Let's Café,代收,停車場,宅配,冷凍宅配,ATM",
    "hours": "24小時",
    "type": "family"
  },
  {
    "id": "FM花花004",
    "name": "全家花蓮縣西區店",
    "city": "花蓮縣",
    "district": "花蓮縣西區",
    "address": "花蓮縣花蓮縣西區民生路355號",
    "phone": "06-9796-8235",
    "services": "宅配,廁所,ATM,WiFi,冷凍宅配,影印,代收",
    "hours": "07:00-23:00",
    "type": "family"
  },
  {
    "id": "FM苗苗001",
    "name": "全家苗栗縣中心區店",
    "city": "苗栗縣",
    "district": "苗栗縣中心區",
    "address": "苗栗縣苗栗縣中心區復興路252號",
    "phone": "08-7136-2936",
    "services": "FamiPort,WiFi,ATM,廁所,店到店,代收,停車場",
    "hours": "06:00-24:00",
    "type": "family"
  },
  {
    "id": "FM苗苗005",
    "name": "全家苗栗縣05店",
    "city": "苗栗縣",
    "district": "苗栗縣東區",
    "address": "苗栗縣苗栗縣東區仁愛路90號",
    "phone": "03-7606-1072",
    "services": "代收,店到店,ATM,FamiPort,冷凍宅配,傳真,WiFi",
    "hours": "06:00-24:00",
    "type": "family"
  },
  {
    "id": "FM苗苗003",
    "name": "全家苗栗縣西區店",
    "city": "苗栗縣",
    "district": "苗栗縣西區",
    "address": "苗栗縣苗栗縣西區中山路466號",
    "phone": "03-7403-9193",
    "services": "廁所,FamiPort,冷凍宅配,WiFi",
    "hours": "06:00-24:00",
    "type": "family"
  },
  {
    "id": "FM苗苗004",
    "name": "全家苗栗縣西區店",
    "city": "苗栗縣",
    "district": "苗栗縣西區",
    "address": "苗栗縣苗栗縣西區中正路75號",
    "phone": "07-9590-5633",
    "services": "ATM,冷凍宅配,店到店,影印,WiFi,廁所,停車場",
    "hours": "07:00-23:00",
    "type": "family"
  },
  {
    "id": "FM苗苗002",
    "name": "全家苗栗縣西區門市",
    "city": "苗栗縣",
    "district": "苗栗縣西區",
    "address": "苗栗縣苗栗縣西區信義路167號",
    "phone": "08-5546-2802",
    "services": "影印,WiFi,冷凍宅配",
    "hours": "06:00-24:00",
    "type": "family"
  },
  {
    "id": "FM連連001",
    "name": "全家連江縣中心區門市",
    "city": "連江縣",
    "district": "連江縣中心區",
    "address": "連江縣連江縣中心區仁愛路447號",
    "phone": "07-3224-8374",
    "services": "宅配,傳真,廁所,WiFi",
    "hours": "06:00-24:00",
    "type": "family"
  },
  {
    "id": "FM金金003",
    "name": "全家金門縣03店",
    "city": "金門縣",
    "district": "金門縣中心區",
    "address": "金門縣金門縣中心區中正路230號",
    "phone": "06-2448-9634",
    "services": "ATM,Let's Café,代收",
    "hours": "07:00-23:00",
    "type": "family"
  },
  {
    "id": "FM金金004",
    "name": "全家仁愛路店",
    "city": "金門縣",
    "district": "金門縣東區",
    "address": "金門縣金門縣東區仁愛路347號",
    "phone": "07-4665-9512",
    "services": "ATM,宅配,停車場,WiFi,店到店,代收",
    "hours": "06:00-24:00",
    "type": "family"
  },
  {
    "id": "FM金金002",
    "name": "全家金門縣02店",
    "city": "金門縣",
    "district": "金門縣東區",
    "address": "金門縣金門縣東區信義路411號",
    "phone": "08-5994-8688",
    "services": "停車場,廁所,傳真,Let's Café,代收",
    "hours": "06:00-24:00",
    "type": "family"
  },
  {
    "id": "FM金金005",
    "name": "全家金門縣05店",
    "city": "金門縣",
    "district": "金門縣東區",
    "address": "金門縣金門縣東區信義路385號",
    "phone": "09-9308-2828",
    "services": "停車場,宅配,冷凍宅配,FamiPort,傳真,店到店,Let's Café",
    "hours": "24小時",
    "type": "family"
  },
  {
    "id": "FM金金001",
    "name": "全家金門縣01店",
    "city": "金門縣",
    "district": "金門縣西區",
    "address": "金門縣金門縣西區中正路428號",
    "phone": "04-9957-4568",
    "services": "影印,ATM,停車場,冷凍宅配,Let's Café,傳真",
    "hours": "24小時",
    "type": "family"
  },
  {
    "id": "FM雲雲003",
    "name": "全家忠孝路店",
    "city": "雲林縣",
    "district": "雲林縣中心區",
    "address": "雲林縣雲林縣中心區忠孝路129號",
    "phone": "06-7614-8350",
    "services": "WiFi,宅配,FamiPort,影印",
    "hours": "07:00-23:00",
    "type": "family"
  },
  {
    "id": "FM雲雲002",
    "name": "全家雲林縣02店",
    "city": "雲林縣",
    "district": "雲林縣中心區",
    "address": "雲林縣雲林縣中心區仁愛路304號",
    "phone": "05-2560-7150",
    "services": "冷凍宅配,宅配,Let's Café,ATM,廁所",
    "hours": "24小時",
    "type": "family"
  },
  {
    "id": "FM雲雲007",
    "name": "全家雲林縣中心區門市",
    "city": "雲林縣",
    "district": "雲林縣中心區",
    "address": "雲林縣雲林縣中心區中正路104號",
    "phone": "02-9309-2337",
    "services": "冷凍宅配,店到店,Let's Café,停車場",
    "hours": "24小時",
    "type": "family"
  },
  {
    "id": "FM雲雲008",
    "name": "全家仁愛路店",
    "city": "雲林縣",
    "district": "雲林縣東區",
    "address": "雲林縣雲林縣東區仁愛路405號",
    "phone": "02-4873-3303",
    "services": "WiFi,冷凍宅配,廁所,店到店,影印,停車場",
    "hours": "24小時",
    "type": "family"
  },
  {
    "id": "FM雲雲004",
    "name": "全家雲林縣東區門市",
    "city": "雲林縣",
    "district": "雲林縣東區",
    "address": "雲林縣雲林縣東區信義路324號",
    "phone": "06-8750-7617",
    "services": "代收,停車場,店到店,FamiPort,WiFi,廁所",
    "hours": "07:00-23:00",
    "type": "family"
  },
  {
    "id": "FM雲雲006",
    "name": "全家雲林縣東區門市",
    "city": "雲林縣",
    "district": "雲林縣東區",
    "address": "雲林縣雲林縣東區自由路448號",
    "phone": "05-3148-6563",
    "services": "ATM,傳真,WiFi,代收,宅配,店到店,廁所",
    "hours": "24小時",
    "type": "family"
  },
  {
    "id": "FM雲雲001",
    "name": "全家雲林縣01店",
    "city": "雲林縣",
    "district": "雲林縣西區",
    "address": "雲林縣雲林縣西區信義路293號",
    "phone": "05-2469-4020",
    "services": "停車場,WiFi,傳真,店到店,ATM,宅配",
    "hours": "07:00-23:00",
    "type": "family"
  },
  {
    "id": "FM雲雲005",
    "name": "全家雲林縣西區店",
    "city": "雲林縣",
    "district": "雲林縣西區",
    "address": "雲林縣雲林縣西區和平路467號",
    "phone": "06-6439-5381",
    "services": "WiFi,傳真,影印,代收,FamiPort,店到店,停車場",
    "hours": "06:00-24:00",
    "type": "family"
  },
  {
    "id": "FM高三009",
    "name": "全家三民區店",
    "city": "高雄市",
    "district": "三民區",
    "address": "高雄市三民區中山路332號",
    "phone": "08-2070-4383",
    "services": "ATM,店到店,FamiPort,宅配",
    "hours": "07:00-23:00",
    "type": "family"
  },
  {
    "id": "FM高三017",
    "name": "全家三民區門市",
    "city": "高雄市",
    "district": "三民區",
    "address": "高雄市三民區中正路302號",
    "phone": "04-8234-7139",
    "services": "ATM,代收,廁所,影印,FamiPort",
    "hours": "06:00-24:00",
    "type": "family"
  },
  {
    "id": "FM高三005",
    "name": "全家高雄市05店",
    "city": "高雄市",
    "district": "三民區",
    "address": "高雄市三民區忠孝路423號",
    "phone": "03-6891-4378",
    "services": "停車場,店到店,代收",
    "hours": "07:00-23:00",
    "type": "family"
  },
  {
    "id": "FM高三008",
    "name": "全家高雄市08店",
    "city": "高雄市",
    "district": "三民區",
    "address": "高雄市三民區忠孝路295號",
    "phone": "08-9854-6792",
    "services": "WiFi,宅配,店到店",
    "hours": "24小時",
    "type": "family"
  },
  {
    "id": "FM高前013",
    "name": "全家前金區門市",
    "city": "高雄市",
    "district": "前金區",
    "address": "高雄市前金區中正路329號",
    "phone": "06-6830-8310",
    "services": "影印,ATM,停車場,店到店,冷凍宅配",
    "hours": "07:00-23:00",
    "type": "family"
  },
  {
    "id": "FM高前012",
    "name": "全家高雄市12店",
    "city": "高雄市",
    "district": "前金區",
    "address": "高雄市前金區信義路187號",
    "phone": "08-2519-2199",
    "services": "FamiPort,冷凍宅配,影印,店到店,廁所",
    "hours": "06:00-24:00",
    "type": "family"
  },
  {
    "id": "FM高前006",
    "name": "全家信義路店",
    "city": "高雄市",
    "district": "前鎮區",
    "address": "高雄市前鎮區信義路316號",
    "phone": "03-6573-6191",
    "services": "宅配,FamiPort,傳真,影印,冷凍宅配,代收,WiFi",
    "hours": "24小時",
    "type": "family"
  },
  {
    "id": "FM高前001",
    "name": "全家前鎮區門市",
    "city": "高雄市",
    "district": "前鎮區",
    "address": "高雄市前鎮區建國路367號",
    "phone": "06-4780-9356",
    "services": "廁所,代收,停車場,FamiPort,影印",
    "hours": "06:00-24:00",
    "type": "family"
  },
  {
    "id": "FM高前014",
    "name": "全家前鎮區門市",
    "city": "高雄市",
    "district": "前鎮區",
    "address": "高雄市前鎮區中正路473號",
    "phone": "05-3840-3586",
    "services": "WiFi,冷凍宅配,影印,停車場,ATM,代收",
    "hours": "06:00-24:00",
    "type": "family"
  },
  {
    "id": "FM高小002",
    "name": "全家小港區店",
    "city": "高雄市",
    "district": "小港區",
    "address": "高雄市小港區仁愛路45號",
    "phone": "06-8559-6655",
    "services": "影印,廁所,WiFi,FamiPort,ATM,冷凍宅配,Let's Café",
    "hours": "24小時",
    "type": "family"
  },
  {
    "id": "FM高小004",
    "name": "全家小港區店",
    "city": "高雄市",
    "district": "小港區",
    "address": "高雄市小港區建國路408號",
    "phone": "05-9509-6212",
    "services": "廁所,冷凍宅配,ATM,傳真,代收",
    "hours": "06:00-24:00",
    "type": "family"
  },
  {
    "id": "FM高小003",
    "name": "全家高雄市03店",
    "city": "高雄市",
    "district": "小港區",
    "address": "高雄市小港區中正路146號",
    "phone": "05-9523-1963",
    "services": "FamiPort,廁所,宅配",
    "hours": "24小時",
    "type": "family"
  },
  {
    "id": "FM高左019",
    "name": "全家左營區店",
    "city": "高雄市",
    "district": "左營區",
    "address": "高雄市左營區自由路442號",
    "phone": "02-5279-3838",
    "services": "ATM,冷凍宅配,停車場",
    "hours": "06:00-24:00",
    "type": "family"
  },
  {
    "id": "FM高左010",
    "name": "全家左營區門市",
    "city": "高雄市",
    "district": "左營區",
    "address": "高雄市左營區中正路450號",
    "phone": "07-2657-3828",
    "services": "WiFi,廁所,店到店,FamiPort",
    "hours": "06:00-24:00",
    "type": "family"
  },
  {
    "id": "FM高新020",
    "name": "全家高雄市20店",
    "city": "高雄市",
    "district": "新興區",
    "address": "高雄市新興區自由路37號",
    "phone": "07-6632-8706",
    "services": "FamiPort,WiFi,ATM,Let's Café,傳真,店到店",
    "hours": "06:00-24:00",
    "type": "family"
  },
  {
    "id": "FM高楠007",
    "name": "全家楠梓區門市",
    "city": "高雄市",
    "district": "楠梓區",
    "address": "高雄市楠梓區民生路94號",
    "phone": "06-3712-3397",
    "services": "ATM,傳真,宅配,FamiPort,冷凍宅配,代收,廁所",
    "hours": "07:00-23:00",
    "type": "family"
  },
  {
    "id": "FM高苓016",
    "name": "全家建國路店",
    "city": "高雄市",
    "district": "苓雅區",
    "address": "高雄市苓雅區建國路159號",
    "phone": "03-4074-5079",
    "services": "Let's Café,ATM,廁所,FamiPort,店到店,代收",
    "hours": "07:00-23:00",
    "type": "family"
  },
  {
    "id": "FM高苓011",
    "name": "全家苓雅區店",
    "city": "高雄市",
    "district": "苓雅區",
    "address": "高雄市苓雅區民生路56號",
    "phone": "02-6406-8178",
    "services": "傳真,店到店,影印,Let's Café",
    "hours": "06:00-24:00",
    "type": "family"
  },
  {
    "id": "FM高苓018",
    "name": "全家苓雅區門市",
    "city": "高雄市",
    "district": "苓雅區",
    "address": "高雄市苓雅區民生路460號",
    "phone": "06-3638-3448",
    "services": "WiFi,ATM,冷凍宅配,FamiPort,影印",
    "hours": "07:00-23:00",
    "type": "family"
  },
  {
    "id": "FM高鼓015",
    "name": "全家信義路店",
    "city": "高雄市",
    "district": "鼓山區",
    "address": "高雄市鼓山區信義路343號",
    "phone": "03-6703-1648",
    "services": "ATM,Let's Café,宅配,停車場,影印,WiFi,冷凍宅配",
    "hours": "07:00-23:00",
    "type": "family"
  }
]